
[
  {       "id": 0,
          "lat": 44.95083,
          "lng": -93.29869,
          "name": "Minneapolis Uptown YWCA",
          "url": "https://www.ywcampls.org/fitness/swimming_and_aquatics/masters_group_swimming/",
          "street_address": "2808 Hennepin Ave. South",
          "city": "Minneapolis",
          "state": "MN",
          "zip": 55408
},
{
          "id": 1,
          "lat": 44.94964,
          "lng": -93.31544,
          "name": "Calhoun Beach Club Of Minneapolis",
          "url": "http://calhounbeachfitness.com/",
          "street_address": "2925 Dean Pkwy",
          "city": "Minneapolis",
          "state": "MN",
          "zip": 55416
},
{
          "id": 2,
          "lat": 44.93948,
          "lng": -93.35917,
          "name": "Central Community Center",
          "url": "http://www.community.com",
          "street_address": "6300 Walker St",
          "city": "St. Louis Park",
          "state": "MN",
          "zip": 55416
},
{
          "id": 3,
          "lat": 44.96539,
          "lng": -93.33487,
          "name": "Sabes JCC",
          "url": "http://www.sabesjcc.org/club-aquatics-masters.php",
          "street_address": "4330 S Cedar Lake Road",
          "city": "Minneapolis",
          "state": "MN",
          "zip": 55416
},
{
          "id": 4,
          "lat": 44.96399,
          "lng": -93.23457,
          "name": "Downtown YMCA",
          "url": "http://www.ymcatwincities.org/locations/minneapolis_downtown_ymca/",
          "street_address": "30 South 9th St.",
          "city": "Minneapolis",
          "state": "MN",
          "zip": 55406
},
{
          "id": 5,
          "lat": 44.90363,
          "lng": -93.27932,
          "name": "Blaisdell YMCA",
          "url": "https://www.ymcamn.org/locations/blaisdell_ymca",
          "street_address": "3335 Blaisdell Ave South",
          "city": "Minneapolis",
          "state": "MN",
          "zip": 55419
},
{
          "id": 6,
          "lat": 45.00510,
          "lng": -93.18094,
          "name": "Fairview Community Center",
          "url": "http://www.isd623.org/commed",
          "street_address": "1910 W County Rd B.",
          "city": "Roseville",
          "state": "MN",
          "zip": 55113
},
{
          "id": 7,
          "lat": 44.89962,
          "lng": -93.34567,
          "name": "South View Middle School",
          "url": "http://www.edinaswim.com",
          "street_address": "4725 South View Lane",
          "city": "Edina",
          "state": "MN",
          "zip": 55424
},
{
          "id": 8,
          "lat": 44.96770,
          "lng": -93.16383,
          "name": "Hamline University",
          "url": "http://www.starswimteam.com",
          "street_address": "1536 Hewitt Ave",
          "city": "St. Paul",
          "state": "MN",
          "zip": 55104
},


  {       "id": 9,
          "lat": 44.94962,
          "lng": -93.14599,
          "name": "Great River Water Park - part of Oxford Community Center",
          "url": "http://stpaul.gov/greatriverwaterpark",
          "street_address": "270 Lexington Parkway N",
          "city": "St. Paul",
          "state": "MN",
          "zip": 55104
},
{
          "id": 10,
          "lat": 44.96770,
          "lng": -93.16383,
          "name": "Hamline University",
          "url": "http://www.starswimteam.net",
          "street_address": "1536 Hewitt Ave",
          "city": "St. Paul",
          "state": "MN",
          "zip": 55104
},
{
          "id": 11,
          "lat": 44.97955,
          "lng": -93.27616,
          "name": "Life Time Fitness - Target Center",
          "url": "http://clubs.lifetimefitness.com/Target-Center/11247/",
          "street_address": "600 1st Avenue N.",
          "city": "Minneapolis",
          "state": "MN",
          "zip": 55403
},
{
          "id": 12,
          "lat": 44.95588,
          "lng": -93.17475,
          "name": "Midway YMCA",
            "url": "https://www.ymcatwincities.org/locations/st_paul_midway_ymca/schedules/",
            "street_address": "1761 University Ave.",
           "city": "St. Paul",
            "state": "MN",
            "zip": 55104
},
{
          "id": 18,
          "lat": 44.94189,
          "lng": -93.16700,
          "name": "Macalester Leonard Center",
          "url": "https://sites.google.com/a/macalester.edu/mac-masters-swimming/home",
          "street_address": "Snelling Avenue",
          "city": "St. Paul",
          "state": "MN",
          "zip": 55105
},
{
          "id": 19,
          "lat": 44.90924,
          "lng": -93.15722,
          "name": "Highland Park Aquatic Center",
          "url": "http://www.stpaul.gov/index.aspx?NID=2673",
          "street_address": "1840 Edgcumbe Road",
          "city": "St. Paul",
          "state": "MN",
          "zip": 55116
},
{
          "id": 13,
          "lat": 44.95746,
          "lng": -93.41492,
          "name": "Hopkins North Jr. High",
          "url": "http://www.genesisaquatics.org",
          "street_address": "10700 Cedar Lake Rd.",
          "city": "Hopkins",
          "state": "MN",
          "zip": 55305
},
{
          "id": 14,
          "lat": 44.93379,
          "lng": -93.41210,
          "name": "Eisenhower Community Center - Hopkins",
          "url": "http://www.genesisaquatics.org",
          "street_address": "1001 Hwy 7",
          "city": "Hopkins",
          "state": "MN",
          "zip": 55305
},
{
          "id": 15,
          "lat": 44.86974,
          "lng": -93.31989,
          "name": "Southdale YMCA",
          "url": "https://www.ymcatwincities.org/locations/southdale_ymca/",
          "street_address": "7355 York Ave. South",
          "city": "Edina",
          "state": "MN",
          "zip": 55435
},
{
          "id": 16,
          "lat": 44.88457,
          "lng": -93.33527,
          "name": "Edina Aquatic Center",
          "url": "http://www.edinaswim.com",
          "street_address": "4300 West 66th Street",
          "city": "Edina",
          "state": "MN",
          "zip": 55435
},
{
          "id": 17,
          "lat": 44.97565,
          "lng": -93.14597,
          "name": "Como Regional Park Pool",
          "url": "http://www.ci.stpaul.mn.us/index.aspx?NID=2672",
          "street_address": "1151 Como Ave",
          "city": "St. Paul",
          "state": "MN",
          "zip": 55103
}
]
